coop,lat,lon,status,activities,address,flocert,type
SCAEK COOP-CA,6.69735,-4.12834,certified Fair Trade producer,production,"BP 94 Kotobi, Kotobi, Ivory Coast",FLO ID 27002,certified
C.3A CA,6.67461,-3.97253,Nestle supplier associated with Cargill,,"Arrah, Ivory Coast",,nestle
COOP-CAAA (Cooperative Agricole Anouanze d’Abongoua),6.64746,-4.10824,certified Fair Trade producer,production,"BP 65 Kotobi, Abongoua, Ivory Coast",FLO ID 25236,certified
COOP-CA P2A (Société Coopérative avec conseil d' administration des Producteurs Agricoles d'Abousouno),6.64869,-4.20514,certified Fair Trade producer,production,"BP 21 Bongouanou, Bongouanou, Ivory Coast",FLO ID 24618,certified
COOP CA ADEDO - Cargill,6.37413,-5.40966,Nestle supplier associated with Cargill. Also certified Fair Trade producer.,"production, collection, commercialization","BP 107 Oume, Oume, Ivory Coast",FLO ID 38663,dual
CAYAT COOP-CA - Cargill (Coopérative Agricole de Yakassé Attobrou),6.09899,-3.85166,Nestle supplier associated with Cargill. Also certified Fair Trade producer.,"production, collection, commercialization","BP 29, Adzopé, Côte d'Ivoire",FLO ID 28419,dual
COOP-CA SOCADAG (Société Coopérative avec conseil d'administration des Agriculteurs de Dagbegoii),4.95187,-6.09179,suspended Fair Trade producer,production,"BP 263 Sassandra, Sassandra, Ivory Coast",FLO ID 37383,suspended
COOP-CA-ECAMOM - Cargill (Societe Cooperative avec ca des Eco-agriculteurs Modernes de Meagui),5.41474,-6.56136,Nestle supplier associated with Cargill. Also certified Fair Trade producer.,"production, collection, commercialization","BP 1430 Divo, Ivory Coast",FLO ID 27899,dual
CNEK (Societe Cooperative Nouvel Esprit de Ketesso),5.87654,-3.17545,certified Fair Trade producer and trader,"production, commercialization","80 km from d'Aboisso, Ketesso, Ivory Coast",FLO ID 32394,certified
COOP-CA ECATAMEA (Méagui ville Société Coopérative Agricole Trawlin des Agriculteurs Meagui),5.40895,-6.56064,suspended Fair Trade producer,production,"BP 163 Meagui, Meagui, Ivory Coast",FLO ID 32713,suspended
ECAPA-GZ COOP CA,5.78651,-6.58899,certified Fair Trade producer,production,"BP 1588 Soubre, Soubre, Ivory Coast",FLO ID 33497,suspended
SOCODA COOP-CA (Société Coopérative pour le Développement Agricole),5.13651,-5.02604,suspended Fair Trade producer,production,"06 BP 1266 Abidjan 06, Grand Lahou, Ivory Coast",FLO ID 34163,certified
COOP CA-CAG,6.74738,-7.36245,certified Fair Trade producer,production,"Duekoué au petit marché, Duekoué, Ivory Coast",FLO ID 34666,suspended
SCOOPAAM (Société Coopérative des Producteurs Agricoles D'Amani-Menou),5.90426,-4.82614,suspended Fair Trade producer,production,"BP 97 Tiassalé, Taabo, Ivory Coast",FLO ID 34795,certified
COOP-CA-COOP Alba (Coopérative Agricole de Lassina-Bango),5.01542,-6.56184,certified Fair Trade producer,production,"Gabiadji, Méné Centre, San Pédro, Ivory Coast",FLO ID 35257,suspended
CODERLACS SCOOPS,6.55615,-5.01568,suspended Fair Trade producer,production,"10 BP 395 Abidjan 10, Toumodi, Ivory Coast",FLO ID 35475,certified
SCOOPANAD-SCOOPS (Société Coopérative Agricole Nouvelle Alliance de Diegonefla),6.28296,-5.57485,certified Fair Trade producer,production,Diégonéfla,FLO ID 36180,certified
Société Coopérative de Para,4.42791,-7.35705,suspended Fair Trade producer,production,"BP 802 San Pedro 01, Tabou, Ivory Coast",FLO ID 36309,suspended
SOCOOPENHA (Société Coopérative Entente de Neka Hannie),4.92661,-7.49494,suspended Fair Trade producer,production,"San Pedro Quartier JB BP 132 Grabo, Grabo, Ivory Coast",FLO ID 36327,suspended
Société Coopérative avec conseil d'administration nouvelle Agricole d'Oume,6.37413,-5.40966,certified Fair Trade producer,production,"BP 854 Oume, Oume, Ivory Coast",FLO ID 36546,certified
C.E.D.A (Société Coopérative Espoir de Dagadji),4.75786,-6.64243,suspended Fair Trade producer,production,"01 BP 46 San Pedro, San Pedro, Ivory Coast",FLO ID 36566,suspended
SCOOPS-SCEB (Société Coopérative Simplifiée Espoir du Bafing),8.28416,-7.68194,suspended Fair Trade producer,production,"Touba, Ivory Coast",FLO ID 36677,suspended
COOP-CA ABO,5.78636,-6.58948,suspended Fair Trade producer,production,"BP 184 Soubré, Soubré, Ivory Coast",FLO ID 36988,suspended
SCOOPS-GORY (Société Coopérative Simplifiée Gory),5.78722,-6.58912,suspended Fair Trade producer,production,"BP 18 Soubre, Soubre, Ivory Coast",FLO ID 37104,suspended
COOP CA ECAPR (Société Coopérative avec conseil d'administration des Eco-Agriculteurs et Producteurs de Robert-Port),5.40255,-6.55761,suspended Fair Trade producer,production,"BP 818 Soubre, Meagui, Ivory Coast",FLO ID 37135,suspended
SCALO COOP-CA (Société Coopérative Agricole de Loboville),5.78585,-6.58901,suspended Fair Trade producer,production,"BP 385 Soubre, Soubre, Ivory Coast",FLO ID 37220,suspended
SCOOPS-ANA.DUE (Société Coopérative Simplifiée Anangaman de Duékoué),6.7472,-7.36348,suspended Fair Trade producer,production,"BP 536 Duekoue, Duekoue, Ivory Coast",FLO ID 37349,suspended
SCOOPS-COOPEK (San-Pedro Société Coopérative Espoir de Kpata-Abidou),4.75791,-6.63981,suspended Fair Trade producer,production,"01 BP 1424 San Pedro 01, San Pedro, Ivory Coast",FLO ID 37421,suspended
CAIBO SCOOPS (Société Coopérative Agricole D'Iboguhe),6.54999,-6.85,suspended Fair Trade producer,production,"BP 779 Issia, Iboguhe, Ivory Coast",FLO ID 37845,suspended
COOP-CA SOCAPROZ (Société Coopérative avec Conseil d'Administration da Tai),6.21116,-7.48682,suspended Fair Trade producer,production,"BP 64 Guiglo, Zagne, Ivory Coast",FLO ID 37968,suspended
SCAC COOP-CA (Société Coopérative des Agriculteurs Communs de Tiassale),5.86799,-4.7588,suspended Fair Trade producer,production,"BP 485 N'douci, Tiassale, Ivory Coast",FLO ID 3801,suspended
SCOES (Société Coopérative Espoir,6.47434,-5.70629,suspended Fair Trade producer,production,"BP 177 Sinfra, Guepahouo, Ivory Coast",FLO ID 38477,suspended
SCOOPS COOPASAM (Société Coopérative Agricole Simplifiée de Sainte-Marie),4.75774,-6.6444,suspended Fair Trade producer,production,"BP 1085 San Pedro, San Pedro, Ivory Coast",FLO ID 38478,suspended
SCOOPS BECIDA (Société Coopérative Becida),5.93549,-4.22308,suspended Fair Trade producer,production,"BP 507 Agboville, Agboville, Ivory Coast",FLO ID 38542,suspended
SOCOOPAB (Société Coopérative Agricole de Beoué),4.92657,-7.49533,suspended Fair Trade producer,production,"BP 72 Grabo, Grabo, Ivory Coast",FLO ID 38609,suspended
SCOOPINECC SCOOPS (Société Coopérative Ivoirienne de Négoce du Café et du Cacao) ,6.15144,-5.95153,certified Fair Trade producer,production,"Gagnoa, Ivory Coast",FLO ID 38656,certified
SCOOPS COASABANA ,7.37506,-6.47698,suspended Fair Trade producer,production,"BP 1020 Daloa, Vavoua, Ivory Coast",FLO ID 38900,suspended
COOP-CA CEEB (Société Coopérative EBO ENIAH de Bangolo),7.00617,-7.48734,suspended Fair Trade producer,production,"Bangolo, Ivory Coast",FLO ID 38961,suspended
SCOOPS FUD (Société Coopérative Simplifiee des Freres Unis de Duekoue),6.74738,-7.36142,certified Fair Trade producer,production,"BP 291 Duekoue, Duekoue, Ivory Coast",FLO ID 39093,certified
COOP CA SOCONI (Société Coopérative Agricole de Niplou avec Conseil d'Administration),4.92653,-7.49464,certified Fair Trade producer,production,"L'axe Tabou Grado a 5 km de Grado a droite, Grabo, Ivory Coast",FLO ID 39196,suspended
SCOOPS MOYE (Société Coopérative Simplifiée Moye de Kononfla),6.6588,-5.609,suspended Fair Trade producer,production,"Sinfra, Kononfla, Ivory Coast",FLO ID 39239,certified
COOP-CA CAEDU (Société Coopérative avec Conseil d'Administration Coopérative Agricole Espoir de Duekoue),6.7472,-7.36108,suspended Fair Trade producer,production,"P 299, Duekoue, Ivory Coast",FLO ID 39255,suspended
SCOOPS-SOCAD (Société Coopérative Agricole Simplifieé Allah En Demin),5.78653,-6.58858,suspended Fair Trade producer,production,"BP 18 Soubre, Soubre, Ivory Coast",FLO ID 39274,suspended
SCOOPS BALITA (Société Coopérative Simplifiée Balita),6.62342,-5.91472,suspended Fair Trade producer,production,"BP 381 Sinfra, Sinfra, Ivory Coast",FLO ID 39286,suspended
COOP SCAT 1 (Société Coopérative Agricole de Touadji 1),5.40865,-6.56078,certified Fair Trade producer,production,"BP 268 Meagui, Meagui, Ivory Coast",FLO ID 36996,certified
ECOPAS COOP-CA,4.75769,-6.64638,certified Fair Trade producer,production,"Dagadji village situé, San Pedro, Ivory Coast",FLO ID 36050,certified
SCOOPS EKO (Société Coopérative Simplifiée Ekanbonou de L'ouest),7.25131,-7.23652,certified Fair Trade producer,production,"Kouibly, Ivory Coast",FLO ID 36380,certified
SOCOOPADO COOP-CA (Sociėté Coopérative Agricole de Dokpodon avec conseil d'administration),5.13645,-5.02639,certified Fair Trade producer,production,"Grand-Lahou, Ivory Coast",FLO ID 36540,certified
SCOOPS COODIG,6.23639,-6.17117,certified Fair Trade producer,production,"Guiberoua quartier commerce, Guiberoua, Ivory Coast",FLO ID 3654,certified
COOP-CA CADB,6.5792,-8.00581,certified Fair Trade producer,production,"BP 06 Blolequin, Blolequin, Ivory Coast",FLO ID 36432,certified
COOPCAKF,7.48302,-3.25081,certified Fair Trade producer,production,"Koun Fao Region du Gontougo Departement de Kounfao, Koun Fao, Ivory Coast",FLO ID 36551,certified
S.C.A.E.D.A (Société Coopérative Agricole des exploitants du Departement de Daloa),6.89753,-6.44895,certified Fair Trade producer,production,"BP 17 Daloa, Daloa, Ivory Coast",FLO ID 36467,certified
SCOOPS-EDIFIE-DOUKOUYA,6.37413,-5.41206,certified Fair Trade producer,production,"BP 65, Oume, Ivory Coast",FLO ID 36543,certified
Société Coopérative Agricole de Sankara Carrefour,5.40533,-6.55367,certified Fair Trade producer,production,"BP 242 Meagui, San-Pedro, Ivory Coast",FLO ID 36769,certified
COOP-CA-Qualog (Sociėté Coopérative avec conseil d'Administration Qualité de Logboville),6.24632,-7.01566,certified Fair Trade producer,production,"Logboville, Logboville/Buyo, Ivory Coast",FLO ID 36568,certified
ECAGNI SCOOPS (Entreprise Coopérative Agricole de Gnipi 2),5.78561,-6.58966,certified Fair Trade producer,production,"BP 1257 Soubre, Soubre, Ivory Coast",FLO ID 36666,certified
COOP-CA ADI (Société Coopérative avec Conseil d'administration de Diangobo),6.65837,-3.27345,certified Fair Trade producer,production,"773 Abengourou, Niable, Ivory Coast",FLO ID 36783,certified
SOCONEL,5.85674,-5.68129,certified Fair Trade producer,production,"BP 201 Lakota, Lakota, Ivory Coast",FLO ID 36853,certified
SO.C.E.A.D.A.HS (Société Coopérative des Exploitants agricoles des Antilopes du Haut-Sassandra),6.89787,-6.44003,certified Fair Trade producer,production,"BP 775 Daloa, Daloa, Ivory Coast",FLO ID 36850,certified
Société Coopérative Simplifiée Solidarité de Sinfra,6.29034,-5.81428,certified Fair Trade producer,production,"BP 349 Sinfra, Goh, Ivory Coast",FLO ID 36854,certified
SCOOPS-CCA (Société Coopérative Simplifié Café & Cacao d'Akoupé),6.38862,-3.88131,certified Fair Trade producer,production,"BP 210 Akoupe, Akoupe, Ivory Coast",FLO ID 36932,certified
SOCOAG COOP-CA  (Société Coopérative Agricole de Gnato),4.43364,-7.5345,certified Fair Trade producer,production,"Grabo-Gnato, Grabo, Ivory Coast",FLO ID 36968,certified
SCAGA COOP-CA  (Société Coopérative Agricole d'Azope),6.10697,-3.85783,certified Fair Trade producer,production,"BP 35 Adzope, Adzope, Ivory Coast",FLO ID 36965,certified
SOCOOABAS (Société Coopérative Agricole Badeya de Soubré),5.78423,-6.5891,certified Fair Trade producer,production,"BP 376 Soubre, Soutbre, Ivory Coast",FLO ID 37160,certified
COOP-CA-ECAL,5.78617,-6.58781,certified Fair Trade producer,production,"BP 251 Soubre, Soubre, Ivory Coast",FLO ID 36998,certified
COOP CA ECATIE,6.74516,-7.35997,suspended Fair Trade producer,production,"Duekoue, Route de Man axe SICTA visite auto SGS, Duekoue, Ivory Coast",FLO ID 37004,suspended
SCOOPS-SCAEBLO,6.57919,-8.00561,certified Fair Trade producer,production,"Blolequin , face camp militaire, Blolequin, Ivory Coast",FLO ID 37005,certified
Societé Coopérative Agricole de N'Drikro Sinfra,6.62333,-5.91,certified Fair Trade producer,production,"BP 112 Sinfra, Sinfra, Ivory Coast",FLO ID 37014,certified
SCOOPS ECAM  (Société Coopérative Simplifiée Agricole M'Bloussoue),6.82762,-5.28934,certified Fair Trade producer,production,"BP162 Yamoussoukro, Yamoussoukro, Ivory Coast",FLO ID 37110,certified
S.C.P.K. COOP-CA) (Société Coopérative des Producteurs de Kangagui),5.78662,-6.58901,certified Fair Trade producer,production,"BP 418 Soubré, Soubré, Ivory Coast",FLO ID 37174,certified
SCOOPA-CA)  (Société Coopérative des Producteurs d'Adama-Kouamékro),5.85639,-5.67735,certified Fair Trade producer,production,"BP 101 Lakota, Lakota, Ivory Coast",FLO ID 37161,certified
COFUMA SCOOPS)  (Coopérative Agricole des Freres unis de la Marahoue),6.98274,-5.74051,certified Fair Trade producer,production,"BP 786 Bouafle, Bonon, Ivory Coast",FLO ID 37183,certified
CAMATIE COOP-CA)  (Société Coopérative Agricole avec Conseil d'Administration Mawoubé de Tiémélékro),6.37814,-3.34798,certified Fair Trade producer,production,"BP 1009 Abengourou, Ebilassokro, Ivory Coast",FLO ID 37276,certified
SCAPCCA) (Société Coopérative Agricole Des Planteurs de Cafe Cacao et Anacarde),6.55602,-5.01646,certified Fair Trade producer,production,"BP 68 Toumodi, Toumodi, Ivory Coast",FLO ID 37168,certified
ECOOKIM-COOP.CA  (Union des sociétés Coopérative Kimbe),5.28988,-3.94958,certified Fair Trade producer,"production, commercialization","Boulevard de Vridi, Zone Industrielle, Abidjan, Ivory Coast",FLO ID 18827,certified
COOP-CA CAPRESSA  (Société Coopérative avec conseil d'administration),6.71569,-3.48013,certified Fair Trade producer,production,"BP 1198, Abengourou, Ivory Coast",FLO ID 21630,certified
COOPAGRIG (Coopérative des Agriculteurs de Guiglo ,5.35995,-4.00825,certified Fair Trade producer,production,"11 BP 588, Abidjan 11, Ivory Coast",FLO ID 24142,certified
C.E.A.A. COOP-CA (Coopérative Espoir Agnikro d’Abengourou Société Coopérative avec conseil d’Administration ,6.71552,-3.48167,certified Fair Trade producer,production,"BP 327, Abengourou, Ivory Coast",FLO ID 24558,certified
Coopérative COOJEPRAS  (Coopérative des Jeunes Producteurs Agricoles Assonvon),6.37814,-3.34798,certified Fair Trade producer,production,"BP 711à Ebilassokro, Abengourou, Ivory Coast",FLO ID 25214,certified
COOPRADI  (Coopérative des producteurs Agricoles de Divo),5.84153,-5.36255,certified Fair Trade producer,production,"Divo BP 450, Ivory Coast",FLO ID 25324,certified
SCOOPACA COOP-CA (Société Coopérative Agricole du Canton Amélékia ,6.83333,-3.58333,certified Fair Trade producer,production,"BP 1006, Amelekiaou, Ivory Coast",FLO ID 25507,certified
COOPAYAAF COOP-CA  (Coopérative Agricole Yéyonian d’Apprompron Affewa),6.72673,-3.51192,certified Fair Trade producer,production,"BP 1382, Côté de l’hotêl Le Royaume, Abengourou, Ivory Coast",FLO ID 25519,certified
CAAN (Coopérative Agricole Adzopé Nord),6.10714,-3.85535,certified Fair Trade producer,production,"BP 266 Adzopé, Agnéby, Ivory Coast",FLO ID 25765,certified
SCOOPADEF-COOP-CA  (Société Coopérative Agricole Départementale Le Fromager),6.15144,-5.95497,certified Fair Trade producer,production,"BP 1388 Gagnoa, Gagnoa, Ivory Coast",FLO ID 26068,certified
CAPA (Coopérative Agricole des Producteurs d’Assiékro),6.42626,-3.36333,certified Fair Trade producer,production,"BP 1079 Abengourou, Zaranou S/P de Zaranou Département d'Abengourou, Zaranou, Ivory Coast",FLO ID 26477,certified
NECAAYO (Nouvelle Enterprise Coopérative Agricole Anouanze de Ooupoyo),5.78662,-6.58996,certified Fair Trade producer,production,"BP 71 Soubré, Oupoyo (Soubré), Ivory Coast",FLO ID 26481,certified
SCAANIAS COOP-CA (Société Coopérative Agricole Anouanzè d'Aniassue avec conseil d'Administration),6.65286,-3.68007,certified Fair Trade producer,production,"BP 536 Abengourou, Aniassue, Abengourou, Ivory Coast",FLO ID 26962,certified
CAYAWA  (Coopérative Agricole Yawoubé d’Aniassué) (COOP-CA YAWOUBE),6.71501,-3.47961,certified Fair Trade producer,production,"BP 686 Abengourou, Abengourou, Ivory Coast",FLO ID 27051,certified
CAAM (Coopérative Agricole Anouanze de Méagui),5.40894,-6.56088,certified Fair Trade producer,production,"Quartier Commerce –OCPV- Méagui, BP 20, Méagui, Ivory Coast",FLO ID 27064,certified
COOPAZA  (Coopérative des producteurs agricoles de Zaranou),6.71552,-3.47876,certified Fair Trade producer,production,"BP 11 Abengourou, Abengourou, Ivory Coast",FLO ID 27147,certified
CAEVA (Coopérative Agricole Espoir de Vavoua),6.88901,-6.42767,certified Fair Trade producer,production,"BP 966, Daloa, Ivory Coast",FLO ID 28279,certified
COOP COOPYMA  (Coopérative Yétikon de Mafféré),5.47451,-3.20307,certified Fair Trade producer,production,"BP 397 Aboisso, Aboisso, Ivory Coast",FLO ID 28417,certified
COOP-CA REJA  (Coopérative Avec Conseil D'Administration Reference de Jacb),6.28292,-5.57442,certified Fair Trade producer,production,"BP 18 Diegonéfla, Diegonéfla, Ivory Coast",FLO ID 28418,certified
SOCAREBIA COOP-CA  (Cooperative Agricole la Renaissance de Bianouan),5.47451,-3.20204,certified Fair Trade producer,production,"BP 411, Aboisso, Ivory Coast",FLO ID 28420,certified
COOPAEB COOP-CA,7.13028,-3.20307,certified Fair Trade producer,production,"BP 72, Agnibilekrou, Ivory Coast",FLO ID 28608,certified
COOBADI (Cooperative Bassadougou de Dies),5.52292,-5.24233,certified Fair Trade producer,production,"BP 351, Guitry, Ivory Coast",FLO ID 30186,certified
SOCOOPAGOS COOP-CA  (Cooperative Agricole Gnamien Oble De Songan),5.47404,-3.20268,certified Fair Trade producer,production,"BP 854 Aboisso, Aboisso, Ivory Coast",FLO ID 31006,certified
COOPAGAGNY (Société Coopérative Agricole De Gagny),4.75624,-6.64037,certified Fair Trade producer,production,"BP 1606 San Pedro, San Pedro, Ivory Coast",FLO ID 31050,certified
COOP CA CPSL (Coopérative des Producteur de Sofoci Louhiri from Méagui),5.40895,-6.56064,certified Fair Trade producer,production,"BP 304 Meagui, Meagui, Ivory Coast",FLO ID 31065,certified
COOP-CA-COASI ,5.40888,-6.56054,certified Fair Trade producer,production,"BP 209, Meagui, Ivory Coast",FLO ID 31075,certified
CAPEKO (Cooperative Agricole de Petit Korhogo),5.52292,-5.24233,certified Fair Trade producer,production,"BP 155 Guitry, Petit Korhogo, Ivory Coast",FLO ID 31077,certified
COOP-CA CAEMIN,6.65149,-3.50034,certified Fair Trade producer,production,"BP 330 Abengourou, Indenie-Djuablin, Ivory Coast",FLO ID 31118,certified
CAMAYE COOP-CA (Cooperative Agricole Mawoube de Yere Yere),6.65149,-3.49622,certified Fair Trade producer,production,"BP 155 Abengourou, Indenie- Djuablin, Ivory Coast",FLO ID 31120,certified
COOP.CA SCAGG (Sociéte Coopérative Agricole Gbadrikro De Godeyaokro),5.52279,-5.24297,certified Fair Trade producer,production,"BP 51 Guitry, Loh-Djiboua, Ivory Coast",FLO ID 31121,certified
COOP-CA-ETC-TAABO  (Entreprise Coopérative de Taabo),5.86799,-4.7588,certified Fair Trade producer,production,"Taabo cité à la cité cadre, BP 28, N’Douci, Ivory Coast",FLO ID 31195,certified
COOP-CA-SCARDI (Cooperative Agricole Renaissance De Divo),5.93325,-5.01717,certified Fair Trade producer,production,"BP 41 Hermankono, Hermankono Garo, Ivory Coast",FLO ID 31846,certified
SCINPA COOP-CA,5.93549,-4.22308,certified Fair Trade producer,production,"Quartier Commerce, Rue CFAO, BP 607, Agboville, Ivory Coast",FLO ID 31847,certified
COOP SCOSA-CI  (Société Coopérative Solidarite Agricole CI),4.95042,-6.09179,certified Fair Trade producer,production,"14 BP 1425 Abidjan 14, Sassandra, Ivory Coast",FLO ID 31866,certified
SCNV COOP-CA (Société Coopérative Nouvelle de Vavoua),7.37463,-6.47544,certified Fair Trade producer,production,"BP 2666 Daloa, Vavoua, Ivory Coast",FLO ID 32304,certified
COOP-CA AHS (Cooperative Agricole Anitche du Haut Sassandra),6.88731,-6.44483,certified Fair Trade producer,production,"BP 715, Daloa, Ivory Coast",FLO ID 32308,certified
SOCOOPACDI (Société Coopérative Agricole de Café et de Cacao de Divo),5.83679,-5.36416,"certified Fair Trade producer, manufacturer, processor","production, processing, commercialization","BP 1430 Divo, Loh D''jiboua, Divo, Ivory Coast",FLO ID 33084,certified
SOCOPANSCOOPCA (Société Coopérative des Producteurs Agricoles N'Zassa de Soubré),5.78587,-6.58852,certified Fair Trade producer,production,"BP 30 Soubré, Soubré, Ivory Coast",FLO ID 33107,certified
COOP-CA Nantebessou,6.71569,-3.48013,certified Fair Trade producer,production,"BP 07 Abengourou, Abengourou, Ivory Coast",FLO ID 33125,certified
COOP-CA Coopakcodi (Coopérative Agricole Avec Conseil d’administration Kichwensida de Cochem-dida),5.83679,-5.36411,certified Fair Trade producer,production,"Loh Djiboua, Ivory Coast",FLO ID 33135,certified
COOP-CA CAADA (Coopérative Agricole Awané de Daloa),6.87913,-6.43968,certified Fair Trade producer,production,"B.P. 107 Daloa, Daloa, Ivory Coast",FLO ID 33185,certified
SOCAK-KATANA,6.74584,-7.36228,certified Fair Trade producer,production,"BP 127 Duekoue, Duekoue, Ivory Coast",FLO ID 33386,certified
ECOOD COOP-CA (Entreprise Coopérative de Dahiri),5.10594,-5.58535,certified Fair Trade producer,production,"BP 77 Fresco, Divo, Ivory Coast",FLO ID 33437,certified
ECAM  (Entreprise Coopérative des Agriculteurs de Meagui),5.40895,-6.56064,certified Fair Trade producer,production,"Meagui, quartier Wawa extension à côté camp eaux et fôrets, Ivory Coast",FLO ID 33793,certified
COOP-CA CPACD (Coopérative des Producteurs Agricoles de Cacaokro de Diès),5.66209,-5.47671,certified Fair Trade producer,production,"Hermankono Diès, Ivory Coast",FLO ID 34065,certified
SCOOPAKOF (Société Coopérative Agricole de Koffikro),5.84153,-5.36255,certified Fair Trade producer,production,"BP 322 Divo, Divo, Ivory Coast",FLO ID 34155,certified
SOCABB (Société Coopérative Agricole Binkadi de Broudoukou Penda),5.84102,-5.36684,certified Fair Trade producer,production,"1458 Divo, Divo, Ivory Coast",FLO ID 34371,certified
SOCODAG COOP-CA  (Société Coopérative pour le developpement de Goudi),5.83812,-5.36135,certified Fair Trade producer,production,"377 Divo, Divo, Ivory Coast",FLO ID 34589,certified
CAYEMOS COOP-CA  (Société Coopérative avec conseil d’Administration Yéyonian de Moussakro),6.71177,-3.48013,certified Fair Trade producer,production,"BP 754 Abengourou, Abengourou, Ivory Coast",FLO ID 34662,certified
SCANFI-SCOOPS,6.71484,-3.48494,certified Fair Trade producer,production,"396 Abengourou, Abengourou, Ivory Coast",FLO ID 34718,certified
CAREA-SCOOPS  (Société Coopérative Agricole Simplifiée Relwindé d’Attiékro),5.55279,-3.25836,certified Fair Trade producer,production,"Attiékro, Abengourou, Ivory Coast",FLO ID 34769,certified
COOP-CA Benkadi,5.54186,-3.29681,certified Fair Trade producer,production,"Siakakro, Ivory Coast",FLO ID 3507,certified
COOPAME COOP-CA (Société Coopérative des Agriculteurs Modernes d'Ebikro),5.72553,-3.11148,certified Fair Trade producer,production,"EBIKRO, AYAME, Ivory Coast",FLO ID 35078,certified
ECAKOG (Entreprise Coopérative Agricole Kognanan de Grogouya),5.85947,-5.67735,certified Fair Trade producer,production,"Grogouya, Lakota, Ivory Coast",FLO ID 35120,certified
COOP-CA COOPANEK,6.74516,-7.36451,certified Fair Trade producer,production,"179 Duekoué, Duekoué, Ivory Coast",FLO ID 35122,certified
Société Coopérative entente de Djekanou ,6.48441,-5.11678,certified Fair Trade producer,production,"Djekanou quartier Olam, Djekanou, Ivory Coast",FLO ID 35176,certified
COOP-CA-MONT-BIAN,7.74423,-7.61684,certified Fair Trade producer,production,"BP 144 Biankouma, Biankouma, Ivory Coast",FLO ID 35204,certified
COOPAWEB COOP-CA (Coopérative Agricole Weyena de Blolequin ,6.54905,-7.49765,certified Fair Trade producer,production,"Blolequin rue Gama, Guiglo, Ivory Coast",FLO ID 35269,certified
COOP-CAAPI  (Société Coopérative avec Conseil d'Administration Anouanze des Producteurs de Indenié),6.42626,-3.36333,certified Fair Trade producer,production,"Appoisso, Abengourou, Ivory Coast",FLO ID 35271,certified
CADESA COOP CA ,4.95106,-6.09093,certified Fair Trade producer and trader,"production, commercialization","Adebem, Sassandra, Ivory Coast",FLO ID 35446,certified
COOP-CA SCOOPAMOU (Société coopérative Agricole de Moussadougou),4.96039,-6.21913,certified Fair Trade producer,production,"San Pédro, Ivory Coast",FLO ID 35805,certified
SOCADA  (Société Coopérative Dawoui d'Alépé),5.50066,-3.66485,certified Fair Trade producer,production,"BP 07 Alepe, Alepe, Ivory Coast",FLO ID 35866,certified
COOPAA COOP-CA (Société Coopérative des Producteurs Associés de l’Agneby),5.93549,-4.22308,certified Fair Trade producer,production,"Agboville, Ivory Coast",FLO ID 35880,certified
Sociéte Coopérative Agricole Siakadougou de Bida avec Conseil d'administration,4.75581,-6.64243,certified Fair Trade producer,production,"01 BP 208 San pédro 01, San Pédro, Ivory Coast",FLO ID 35954,certified
2Société Coopérative des Planteurs Solidaires de Sassandra,4.95084,-6.09243,certified Fair Trade producer,production,"BP 185 Sassandra, Sassandra, Ivory Coast",FLO ID 36048,certified
COOP-CA (Société Coopérative Agricole Boribana de Bloléquin),6.57919,-8.0057,certified Fair Trade producer,production,"Blolequin, quartier Gaman, Blolequin, Ivory Coast",FLO ID 36086,certified
SCASOU (Société Coopérative Agricole de Soubré),5.78589,-6.59013,certified Fair Trade producer,production,"BP 196 Soubré, Soubré, Ivory Coast",FLO ID 36179,certified
SOCABEN (Société Coopérative Agricole De Benjamimkro),4.75782,-6.63831,certified Fair Trade producer,production,"01 BP 389 San Pedro, San Pedro, Ivory Coast",FLO ID 36260,certified
COOP-CA-SECOM,4.95003,-6.09239,certified Fair Trade producer,production,"MEDON S/P de Sassandra-Dep Sassandra, Sassandra, Ivory Coast",FLO ID 36333,certified
STE Coopérative Doni Doni Delakota,5.85878,-5.67477,certified Fair Trade producer,production,"BP 303 Lakota, Lakota, Ivory Coast",FLO ID 36334,certified
SCANDI COOP-CA  (Société Coopérative Nataaba de Diegonefla),6.28257,-5.57519,certified Fair Trade producer,production,"BP 07 Diegonefla, Diegonefla, Ivory Coast",FLO ID 36367,certified
COOP-CA ECB,4.94977,-6.09085,certified Fair Trade producer,production,"BP 03 Sassandra, Sassandra, Ivory Coast",FLO ID 36378,certified
COOP-CA-A.N'ZUE (Société Coopérative Des Agriculteurs de N’ZUEKRO),4.75577,-6.645,certified Fair Trade producer,production,"Gligbeaudji (San-Pedro), San-Pedro, Ivory Coast",FLO ID 36703,certified
COOP-CA CAPUG  (COOP-CA des Producteurs Unis du Guemon),6.74738,-7.36546,certified Fair Trade producer,production,"Duekoue Quartier Antenne, Duekoue, Ivory Coast",FLO ID 36768,certified
COOP-CA-A.N'ZUE II  (Société Coopérative Des Agriculteurs De N'ZUEKRO II),4.95089,-6.09346,certified Fair Trade producer,production,"Djoroplo, Ivory Coast",FLO ID 37281,certified
COOP-CA COOPRABED  (Société Coopérative Bebitafo de Duekoue),6.74226,-7.36142,certified Fair Trade producer,production,"Duékoué, 356, Ivory Coast",FLO ID 37282,certified
COOP-CA DJOUMAN,6.74738,-7.36245,certified Fair Trade producer,production,"BP Duekoue, Duekoue, Ivory Coast",FLO ID 37357,certified
BARA COOP-CA,7.00582,-7.48554,certified Fair Trade producer,production,"Kahin Zarabaon, Bangolo, Ivory Coast",FLO ID 37358,certified
COOP-CA CABEND (Coopérative Agricole Benguema de Duekoue),6.74738,-7.36245,suspended Fair Trade producer,production,"BP 08 Duekoue, Duekoue, Ivory Coast",FLO ID 37359,suspended
C.A.B.A.G SCOOPS (Société Coopérative Simplifiée Agricole Barakadi de Gonate),6.87844,-6.43041,certified Fair Trade producer,production,"BP 2028 Daloa, Daloa, Ivory Coast",FLO ID 37405,certified
SCAAG-SCOOPS  (Société Coopérative Agricole Allouata de Guiglo),6.54846,-7.49928,certified Fair Trade producer,production,"BP 51 Guiglo, Guiglo, Ivory Coast",FLO ID 37473,certified
COOP-CA CABD  (Société Coopérative Agricole Binkadi de Dougbo),4.92584,-7.49503,certified Fair Trade producer,production,"BP 89 Grabo, Tabou, Ivory Coast",FLO ID 37488,certified
UPRAD  (Union des Producteurs Agricoles de Djakouakoukro),5.23646,-6.07056,certified Fair Trade producer,production,"Djakouakoukro, campement du village Niapidou, s/p Dakpadou dans le Departement de Sassandra, Ivory Coast",FLO ID 37504,certified
SOCARIT COOP-CA (Société Coopérative Agricole des Riverains du Tonkpi),4.75273,-6.64294,certified Fair Trade producer,production,"01 BP 802 San Pedro, San Pedro, Ivory Coast",FLO ID 37604,certified
COOP-CA COOPASOD (COOP-CA Solidarité de Duekoue),6.74311,-7.35885,certified Fair Trade producer,production,"BP 533 Duekoue, Duekoue, Ivory Coast",FLO ID 37636,certified
COOP-CA Aclomion-Bla de Duekoue (CABD) (Société Coopérative avec Conseil d'Administration COOP-CA Aclomion-Bla de Duekoue),6.74073,-7.36554,certified Fair Trade producer,production,"BP 820 Duekoue, Duekoue, Ivory Coast",FLO ID 37649,certified
USCRG COOP-CA  (Union des Sociétés Coopérative de la Region du Goh),6.14666,-5.9481,certified Fair Trade producer,production,"BP 1027 Gagnoa, Gagnoa, Ivory Coast",FLO ID 37652,certified
COOP-CA AB  (COOP-CA des Agriculteurs de BALOKUYA),4.94982,-6.09166,certified Fair Trade producer,production,"Pauly Brousse - A 15 km de Sassandra, sur l'axe Sassandra-San Pedro, Sassandra, Ivory Coast",FLO ID 37670,certified
SCOOPS CAVASA  (Société coopérative simplifiée coopérative agricole de la vallée du Sassandra),6.74431,-7.36863,certified Fair Trade producer,production,"BP 127 Duékoué, Duékoué, Ivory Coast",FLO ID 37773,certified
AGBS COOP-CA  (Société Coopérative Agricole Gnatibia De Sikensi),5.66443,-4.57997,certified Fair Trade producer,production,"BP 32 Sikensi, Sikensi, Ivory Coast",FLO ID 37789,certified
ECAF-HS COOP CA,6.48761,-6.58367,certified Fair Trade producer,production,"BP 799 Issia, Issia, Ivory Coast",FLO ID 37889,certified
YEYASSO-COOP-CA  (Société Coopérative avec Conseil d'Administration Yeyasso de Man),7.40642,-7.55722,certified Fair Trade producer,production,"BP 24 Man, Man, Ivory Coast",FLO ID 37979,certified
SOCODS-SCOOPS  (Société Coopérative Dialogue de Seguela),7.96017,-6.6745,certified Fair Trade producer,production,"BP 435 Seguela, Seguela, Ivory Coast",FLO ID 38211,certified
Coopérative CAL2B  (Société Coopérative Agricole Leader de Bon Blanc),4.75461,-6.6462,certified Fair Trade producer,production,"01 BP 526 San Pedro 01, San Pedro, Ivory Coast",FLO ID 38284,certified
SOCABA  (Société Coopérative Agricole de Bayota),6.45842,-5.95698,certified Fair Trade producer,production,"BP 55 Bayota, Bayota, Ivory Coast",FLO ID 38293,certified
SCOOPS-ECAB  (Société Coopérative Simplifiee Elite Coopérative Agricole de Blolequin),6.57909,-8.00574,certified Fair Trade producer,production,"11 BP 1616 Abidjan 11, Blolequin, Ivory Coast",FLO ID 38343,certified
SCOOPS-DFA  (Société Coopérative Agricole Simplifieé DFA de Divo),5.83744,-5.35963,certified Fair Trade producer,production,"Divo Quartier Libanais, Divo, Ivory Coast",FLO ID 38395,certified
SCOOPECO COOP-CA  (Société Coopérative Etrayawlen de la Cotiere),5.73821,-5.61621,certified Fair Trade producer,production,"Lakota S/P Goudouko, Ivory Coast",FLO ID 38396,certified
SCOOPS SOCAZM  (Société Coopérative Simplifieé Zozoro de Man),7.40643,-7.55734,certified Fair Trade producer,production,"Man, Ivory Coast",FLO ID 38400,certified
SCBPAG  (Société Coopérative pour le Bonheur des Producteurs Agricole de Gagnoa),6.14632,-5.95668,certified Fair Trade producer,production,"BP 967 Gagnoa, Gagnoa, Ivory Coast",FLO ID 38435,certified
ECSP COOP-CA  (Entreprise Coopérative de Saint Paul),4.75307,-6.63951,certified Fair Trade producer,production,"BP 311 San Pedro 01, San Pedro, Ivory Coast",FLO ID 38437,certified
COOP-CA COOPBEL  (Coopérative avec Conseil d’Administration Coopérative du Belier),6.55602,-5.01564,certified Fair Trade producer,production,"BP 306 Toumodi, Abidjan, Ivory Coast",FLO ID 38467,certified
SCOOPS WEBE  (Société Coopérative Simplifiée des Producteurs Agricoles Webe de Bonieredougou),5.35995,-4.00825,certified Fair Trade producer,production,"BP 2730 Abidjan, Abidjan, Ivory Coast",FLO ID 38479,certified
SCOOPS RENANI  (Société Coopérative la Renaissance de Niani),5.10582,-5.586,certified Fair Trade producer,production,"BP 32 Fresco, Fresco, Ivory Coast",FLO ID 38570,certified
COOP-CA REFSI  (Société Coopérative avec Conseil d'Administration Référence de Sinfra),6.62333,-5.91455,certified Fair Trade producer,production,"BP 112 Sinfra, Sinfra, Ivory Coast",FLO ID 38605,certified
SCOESA COOP-CA (Société Coopérative Espérance d'Adzopé),6.10714,-3.85535,certified Fair Trade producer,production,"BP 177 Adzopé, Adzopé, Ivory Coast",FLO ID 38614,certified
SCPCCT-CA  (Société Coopérative des Producteurs de Café Cacao de Tiassalé),5.86799,-4.7588,certified Fair Trade producer,production,"BP 113 N'douci, N'douci, Ivory Coast",FLO ID 38643,certified
COOP-CAAD  (Société Coopérative avec Conseil d'Administration Agnitie de Diegonefla),6.28228,-5.5745,suspended Fair Trade producer,production,"BP 65 Oume, Diegonefla, Ivory Coast",FLO ID 38717,suspended
SCOOPS-PMB (SCOOPS-Producteur Moderne de Bangueli),6.73902,-7.36263,certified Fair Trade producer,production,"BP 138 Duekoue, Duékoué, Ivory Coast",FLO ID 38786,certified
CAFUM COOP-CA,6.98257,-5.74617,certified Fair Trade producer,production,"BP 644 Bouafle, Bouafle, Ivory Coast",FLO ID 38787,certified
"COOP-CA CAPSUD  (Soc Coop avec conseil d’Administration, Cooperative agricole des producteurs success de Deukoue)",6.74022,-7.36966,certified Fair Trade producer,production,"BP 309 Duekoue, Duekoue, Ivory Coast",FLO ID 38822,certified
COOP-CA PUA  (Société Coopérative des Planteurs unis d'Agboville),5.93515,-4.22892,certified Fair Trade producer,production,"Agboville, Ivory Coast",FLO ID 38899,certified
COOP-CA SKD  (Société Coopérative Sabari Kagny De Duekoue),6.74533,-7.3719,certified Fair Trade producer,production,"BP 930 Duekoue, Duekoue, Ivory Coast",FLO ID 38902,certified
COOP-CA PRO,6.74993,-7.37001,certified Fair Trade producer,production,"BP 309 Duekoue, Duekoue, Ivory Coast",FLO ID 38941,certified
SCOOPS-SAHS,6.88799,-6.45342,certified Fair Trade producer,production,"BP 306 Daloa, Daloa, Ivory Coast",FLO ID 39053,certified
SOCAMEA COOP-CA  (Coopérative Agricole Man Edi Anouanzé),7.74423,-7.61684,certified Fair Trade producer,production,"BP 122 Biankouma, Biankouma, Ivory Coast",FLO ID 39094,certified
SOCAGNIPI  (Société Cooperative des Agriculteurs de GNIPI 2),5.7867,-6.59167,certified Fair Trade producer,production,"Axe Soubre San Pedro a 13 km de Soubre, Gnipi2, Ivory Coast",FLO ID 39152,certified
SCOOPS CAPROCA  (Société Coopérative Agricole Simplifiée des Producteurs du Cavally),6.54905,-7.49765,certified Fair Trade producer,production,"Guiglo, Ivory Coast",FLO ID 39189,certified
COOP CAED  (Coopérative Agricole Emergente de Daloa ,6.87333,-6.44518,certified Fair Trade producer,production,"Rue Cargill, Daloa, Ivory Coast",FLO ID 39221,certified
COOP-CA CAPATRAB  (Société Coopérative Paix Travail de Blolequin),6.57908,-8.00563,certified Fair Trade producer,production,"BP 75 Guiglo, Blolequin, Ivory Coast",FLO ID 39223,certified
ECAO COOP-CA,5.78337,-6.59107,certified Fair Trade producer,production,"BP 827 Soubre, Oupoyo, Soubre, Ivory Coast",FLO ID 39240,certified
SCOOWEND COOP-CA,7.35,-8.35,certified Fair Trade producer,production,"Djapadji s/p Doba, San Pedro, Ivory Coast",FLO ID 39288,certified
COOP-CA-SOCAWESN  (La Société Coopérative Agricole Wendla Songa de Nane),7.7438,-7.6195,certified Fair Trade producer,production,"Biankouma, Ivory Coast",FLO ID 39338,certified
SCOOPS MONT MOMI  (Société Coopérative Simplifiée des producteurs du Mont Momi),7.50886,-8.10316,certified Fair Trade producer,production,"KATA sous -préfecture de Daleu, Danané, Ivory Coast",FLO ID 39351,certified
SOCOOPRADA  (Société Coopérative des Producteurs Agricole du Département de la Daloa),6.87538,-6.46097,certified Fair Trade producer,production,"BP 301, Daloa, Ivory Coast",FLO ID 39424,certified
SCOOPS-KRIHIRI  (Société Coopérative Simplifiée Krihiri de Bassehoa),6.23605,-6.17233,certified Fair Trade producer,production,"Bassehoa, Guiberoua, Ivory Coast",FLO ID 39450,certified
SCAED  (Société Coopérative Agricole Entente de Dakpadou),5.23646,-6.07056,certified Fair Trade producer,production,"Dakpadou, Sassandra, Ivory Coast",FLO ID 39525,certified
SOCADJA COOP-CA,4.42809,-7.35868,certified Fair Trade producer,production,"Djouroutou, Ivory Coast",FLO ID 39559,certified
SOCA2PD  (Société Coopérative Simplifiée Anouanze des petits Producteurs de Didoko.),5.84495,-5.36529,certified Fair Trade producer,production,"01 BP, Divo, Ivory Coast",FLO ID 39718,certified
COOP CA WENDE  (Société Coopérative Agricole Pang Bene Wende de Duekoue.),6.73902,-7.35885,certified Fair Trade producer,production,"S/P, Duekoue, Ivory Coast",FLO ID 39768,certified
SCOOPS-COOPAC  (Société Coopérative Simplifiée Coopérative Agricole du Cavally),7.2676,-8.14478,certified Fair Trade producer,production,"BP 306, Danane, Ivory Coast",FLO ID 39776,certified
SCOOPS CASH PRODS  (Société Coopérative simplifiée d'achat Cash de Produits),5.47237,-3.20324,certified Fair Trade producer,production,"BP 423, Aboisso, Ivory Coast",FLO ID 39802,certified
SOCO SABARI COOP-CA,5.40881,-6.5611,certified Fair Trade producer,production,"BP304, Meagui, Ivory Coast",FLO ID 39889,certified
COOP-CA SCAMB  (Société Coopérative avec Conseil d'Administration Manfai de Blolequin),6.57915,-8.00589,certified Fair Trade producer,production,"Blolequin, Ivory Coast",FLO ID 39890,certified
COOP-CA GUELAHASSON,6.74738,-7.36245,certified Fair Trade producer,production,"BP 573, Duekoue, Ivory Coast",FLO ID 39900,certified
COOP-CA EM  (Société Coopérative avec Conseil d'administration entente de Mahapleu.),7.22586,-7.93477,certified Fair Trade producer,production,"Mahapleu, Danane, Ivory Coast",FLO ID 39901,certified
SCOOPS-CA K  (La Société Coopérative Agricole Kakewa de Mahapleu),7.22556,-7.93562,certified Fair Trade producer,production,"Mahapleu, Danane, Ivory Coast",FLO ID 39950,certified
COOP-CA SINGA  (Société Coopérative Singa de Man),7.40642,-7.55722,certified Fair Trade producer,production,"Man, Ivory Coast",FLO ID 39981,certified
SCOOPS MAHOL  (Société Coopérative simplifiée SCOOPS MAHOL.),4.75735,-6.64895,certified Fair Trade producer,production,"01 BP 110, San Pedro, Ivory Coast",FLO ID 40085,certified
SCARF-SCOOPS  (Société Coopérative des agriculteurs de la region du Fromager),6.29543,-5.93687,certified Fair Trade producer,production,"BP 1218, Ouragahio, Ivory Coast",FLO ID 40171,certified
SCOOPS-TIPHERET  (Société Coopérative Simplifiée Tipheret de Blolequin),6.57919,-8.0057,certified Fair Trade producer,production,"Blolequin, Ivory Coast",FLO ID 40319,certified
CACDA SCOOPS  (Société Coopérative Simplifiée Agricole Confiance de Daloa),6.88697,-6.45685,certified Fair Trade producer,production,"BP 1445, Daloa, Ivory Coast",FLO ID 40489,certified
SCAFKO-SCOOPS  (Société Coopérative Agricole des Frères de Koffrikro-Société Coopérative Simplifiée),6.92008,-6.05203,certified Fair Trade producer,production,"BP 117, Bonon, Ivory Coast",FLO ID 40522,certified
ANOUANZE 3A SCOOPS  (Société Coopérative Simplifiée Agricole de Bacanda),5.63203,-4.8767,certified Fair Trade producer,production,"BP 85, Bacanda, Ivory Coast",FLO ID 40611,certified
SCAWSN COOP-CA  (Société Coopérative Agricole Wende Sonkodon de Nigre),5.62305,-7.35975,certified Fair Trade producer,production,"Nigré, Ivory Coast",FLO ID 40618,certified
CAGB COOP-CA  (Société Coopérative avec Conseil d'Administation Coopérative Agricole Gnongofe de Blolequin),6.57916,-8.00554,certified Fair Trade producer,production,"Blolequin après le grans marché, Bloleqin, Ivory Coast",FLO ID 40725,certified
SOCONPAYAT COOP-CA  (Société Coopérative Nouvelle des Producteurs Agricole de Yakasse Attobrou),6.54696,-3.33701,certified Fair Trade producer,production,"Diangobo, Attobrou, Ivory Coast",FLO ID 40730,certified
COOP-CA SCAND II  (Société Cooperative Agricole Nouvelle de Djouroutou) ,4.42791,-7.35705,certified Fair Trade producer,production,"Djouroutou, Ivory Coast",FLO ID 40931,certified
UISCA CI COOP-CA,5.84153,-5.36255,certified Fair Trade producer,production,"BP 523 Divo, Divo, Ivory Coast",FLO ID 40996,certified
COOP-CA SCOALO  (Société Coopérative Agricole de Lobakuya),4.95046,-6.0902,certified Fair Trade producer,production,"BP 308 Sassandra, Sassandra, Ivory Coast",FLO ID 41103,certified
ECODEBO SCOOPS  (Entreprise Coopérative pour le developpement de Bonom),6.92,-6.05401,certified Fair Trade producer,production,"Derrière la gendarmerie de la ville., Bonon, Ivory Coast",FLO ID 41133,certified
COOP-CA SOUGRI NONMA,6.74618,-7.35696,certified Fair Trade producer,production,"BP 291 Duekoue, Duekoue, Ivory Coast",FLO ID 41138,certified
COOP-CA-SOCATOB  (Société Coopérative Agricole Générale Tobadougou de Gourane avec Conseil d'administration),7.53115,-7.41436,certified Fair Trade producer,production,"Gbonne-Gourane, Biankouma, Ivory Coast",FLO ID 41162,certified
ECYG-COOP-CA  (Entreprse Coopérative Yégoti de Guiglo Coopérative avec Conseil d'administration),6.5482,-7.4949,certified Fair Trade producer,production,"BP 55, Guiglo, Ivory Coast",FLO ID 41165,certified
SCOOPAKAM  (Société Coopérative Agricole de Kames),5.84461,-5.36924,certified Fair Trade producer,production,"BP 890 Divo, Divo, Ivory Coast",FLO ID 41177,certified
COOP-CA COOPASON  (Coopérative Agricole Sougourinomman de Nadjette),6.74124,-7.37344,certified Fair Trade producer,production,"S/P Bagohouo, Duekoue, Ivory Coast",FLO ID 41180,certified
SCOOPS-IZ  (Société Coopérative Agricole Ibala de Zagné),6.2109,-7.48858,certified Fair Trade producer,production,"Zagné non-loin du grand dépôt de poisson, Zagne, Ivory Coast",FLO ID 41242,certified
COPABO (COPABO Coopérative des Producteurs Agricoles de Bondoukou),8.04788,-2.80786,certified Fair Trade producer,production,"BP 293, Bondoukou, Ivory Coast",FLO ID 4692,certified
CABF  (Cooperative Allah Bekele de Fresco) ,5.10509,-5.5848,certified Fair Trade producer and trader,"production, commercialization","05 BP 2730 Abidjan 05, Fresco, Ivory Coast",FLO ID 6172,certified
CABZOU COOP-CA - Barry Callebaut,6.76789,-6.85933,Nestle supplier associated with Barry Callebaut,,"Boh-Nouman/Zoukougbeu, Ivory Coast",,nestle
DUEKOUE NORD-BIO - Barry Callebaut,6.74269,-7.36383,Nestle supplier associated with Barry Callebaut,,"Duekoue, Ivory Coast",,nestle
CEXPAG COOP-CA - Barry Callebaut,6.54598,-7.49739,Nestle supplier associated with Barry Callebaut,"production, collection, commercialization","Guiglo, Ivory Coast",,nestle
COOP-CA COOTIEN-OULA - Barry Callebaut  (Societe Cooperative de Tien-Oula),6.73834,-7.36803,Nestle supplier associated with Barry Callebaut,"production, collection, commercialization","Oula, Ivory Coast",,nestle
Coop-CA Abo - Barry Callebaut ( ? ),8.0466,-2.80606,Nestle supplier associated with Barry Callebaut. Perhaps also certified Fair Trade producer.,production,"Bondoukou, Ivory Coast",FLO ID 4692 (?),nestle
SCOOPADOB - Barry Callebaut,5.20172,-6.70106,Nestle supplier associated with Barry Callebaut,,"Gligbéuadji, Côte d'Ivoire",,nestle
SOCOOPAK COOP-CA - Barry Callebaut,5.40864,-6.56057,Nestle supplier associated with Barry Callebaut. Also certified Fair Trade producer.,"production, collection, sales, commercialization","BP 328 Meagui, Soubre, Ivory Coast",FLO ID 37885,dual
COOP-CA-CABID - Barry Callebaut  (Société Coopérative Binkadi De Divo - Sassandra),5.84461,-5.36049,Nestle supplier associated with Barry Callebaut. Also certified Fair Trade producer.,"production, collection, sales, commercialization","Dakpadou (Sassandra), Divo, Ivory Coast",FLO ID 36788,dual
SCJPAB COOP-CA - Barry Callebaut  (Société Coopérative des Jeunes Producteurs Agricole de Bangolo),7.00591,-7.48888,Nestle supplier associated with Barry Callebaut. Also suspended Fair Trade producer.,,"Bangolo, Ivory Coast",FLO ID 37236,dual
SCOABIA COOP CA - Barry Callebaut  (Societe Cooperative Anonklon de Bianouan),5.47451,-3.20307,Nestle supplier associated with Barry Callebaut. Also certified Fair Trade producer.,"production, collection, storage, processing, commercialization","BP 423 Aboisso, Aboisso, Ivory Coast",FLO ID 26396,dual
ECOPADI COOP-CA - Blommer/OLAM,5.84034,-5.37079,Nestle supplier associated with Blommer/Olam. Also certified Fair Trade and UTZ producer.,"production, storage, processing, commercialization","BP 445 Divo, Divo, Ivory Coast",FLO ID 38176,dual
COOP SECA CA - Cargill  (Société Entente Coopérative d'Alikro),5.68497,-6.07056,Nestle supplier associated with Cargill. Also certified Fair Trade producer.,"collection, commercialization","BP 290 Gueyo, Gueyo, Ivory Coast",FLO ID 32765,dual
CANN COOP CA - Cargill  (Coopérative Agricole NZRAMA de N'DOUCI),5.86757,-4.75648,Nestle supplier associated with Cargill. Also certified Fair Trade producer.,production,"Rue de la scierie, Axe Ndouci-Sikensi, Ndouci, Ivory Coast",FLO ID 18716,dual
SCOOP CASO - Cargill  (Societe Cooperative Agricole de Songan),6.01366,-3.19051,Nestle supplier associated with Cargill,"production, collection, storage, processing, commercialization","Bianouan, Côte d'Ivoire",,nestle
SOCAYEMA COOP CA - Cargill  (Société Coopérative Yehoulo-Yehon de Mafere),5.47451,-3.20307,Nestle supplier associated with Cargill. Also certified Fair Trade producer.,production,"BP1008 Aboisso, Mafere, Ivory Coast",FLO ID 37977,dual
COOP-CA COOPADOU - Cargill  (Societe Cooperative Agricole de Cantondougou),4.75786,-6.64243,Nestle supplier associated with Cargill,"production, collection, sales, commercialization","San-Pedro, Côte d'Ivoire",,nestle
SOCODD - Cargill  (Société Coopérative Dialogue Djekanou),6.48458,-5.1161,Nestle supplier associated with Cargill. Also certified Fair Trade producer.,production,"BP 68 Toumodi Djakanou, Ivory Coast",FLO ID 30903,dual
SCAET-SCOOPS - Cargill,6.91986,-8.20489,Nestle supplier associated with Cargill,"production, collection, storage, commercialization","Zouan-Hounien, Côte d'Ivoire",,nestle
CPP-CA LCAG COOP-CA - Cargill  (Societe Cooperative Agricole Loyale de Guitry),5.52292,-5.24233,Nestle supplier associated with Cargill,"collection, storage, distribution, processing, commercialization","Guitri, Côte d'Ivoire",,nestle
  UCODEL COOP-CA - Cargill,5.85064,-5.68087,Nestle supplier associated with Cargill,,"Unnamed Road, Lakota, Côte d'Ivoire",,nestle
 SOCOOPEM COOP-CA - Cargill,4.78013,-6.64751,Nestle supplier associated with Cargill,,"QUARTIER SAUTREF, En Face de SAF CACAO ET PETROCI, San-Pédro, Côte d'Ivoire",,nestle
 SCAES COOP-CA - Cargill  (Cooperative Agricole Entente Soutra de Meagui),5.40895,-6.56064,Nestle supplier associated with Cargill,"collection, commercialization",Côte d'Ivoire,,nestle
Cemoi Cote d'Ivoire,5.3691636,-4.0984966,certified Fair Trade producer and trader,"production, processing, commercialization","Yopougon Zone Industrial, Abidjan, Ivory Coast",FLO ID 33178,certified
Zamacom S.A.,5.2666931,-4.0109406,certified Fair Trade trader,commercialization,"Abidjan-Vridi, Zone Industrielle, face RADCI, Abidjan, Ivory Coast",FLO ID 19167,certified
COOPAAAKO  (Coopérative Agricole Abocanin d'Akoupe),5.4813951,-4.1627295,certified Fair Trade producer,production,"Akoupe A 50 M de la Station Texaco, ABIDJAN VGE IMM DUNES OUEST 2è ETAGE, Abidjan, Ivory Coast",FLO ID 19452,certified
Cargill West Africa,5.279466,-4.0112859,certified Fair Trade trader,commercialization,"01 BP V215 Abidjan 01, Abidjan, Ivory Coast",FLO ID 22035,certified
Barry Callebaut Negoce,5.348776,-4.120097,certified Fair Trade trader,commercialization,"15 BP 431 Abidjan 15, Abidjan, Ivory Coast",FLO ID 23724,certified
Outspan Ivoire S.A.,5.3494279,-4.1207846,certified Fair Trade trader,commercialization,"Boulevard de Vridi, Zone Portuaire, 15 BP 300 Abidjan 15, Abidjan, Ivory Coast",FLO ID 23830,certified
SO.CAFHS  (Société Coopérative Agricole Fiédifoue du Haut Sassandra),6.89996,-6.5156039,certified Fair Trade producer,production,"BP 1999 Daloa, Daloa, Ivory Coast",FLO ID 25546,certified
Ocean SA,6.9015385,-7.5699798,certified Fair Trade trader,commercialization,"Abidjan Vridi Magasin, 01 BP 4574, Abidjan, Ivory Coast",FLO ID 29906,certified
COOP-CA-ECAAF (Entreprise Cooperative Agricole D’Affery ),6.3211554,-3.9664993,certified Fair Trade producer,production,"BP 11 Akoupé, Affery, 225, Ivory Coast",FLO ID 31211,certified
SUCDEN-CI ,5.2979369,-3.9986585,certified Fair Trade trader,commercialization,"Zone 3, Boulevard de Marseille, Abidjan, Ivory Coast",FLO ID 33325,certified
Kineden SA ,5.3494279,-4.1207846,certified Fair Trade trader,commercialization,"Treichville, Boulevard de Vridi, zone industrielle, usine CFS 1, Abidjan, Ivory Coast",FLO ID 33410,certified
Cyrian International SA,5.3213434,-4.0197504,certified Fair Trade trader,commercialization,"6 éme étage immeuble le Djekanou, Boulevard du general de Gaulle, Abidjan, Ivory Coast",FLO ID 33688,certified
AFCOTRADE (Africa Commodities Trading SA),5.348776,-4.120097,certified Fair Trade trader,commercialization,"26 BP 371 Abidjan 26, Abidjan, Ivory Coast",FLO ID 34185,certified
COOP-CA SCAPEN  (Coopérative Agricole N'ZASSA de Tiassalé),5.9332778,-5.0259486,certified Fair Trade producer,production,"BP 06 Hermankono-Garo, Tiassalé, Ivory Coast",FLO ID 35252,certified
Africa Sourcing ,5.3494279,-4.1207846,certified Fair Trade trader,commercialization,"Treichville zone portuaire, rue des thoniers locaux SIFCACOOP, Abidjan, Ivory Coast",FLO ID 35834,certified
COOP-CA SOPLAD ,5.348776,-4.120097,certified Fair Trade trader,commercialization,"TORICAF2 USINE VRIDI, Abidjan, Ivory Coast",FLO ID 36087,certified
SUTEC ,6.9015385,-7.5699798,certified Fair Trade trader,commercialization,"Vridi, Zone industrielle, Rue Zimbabwé, Abidjan, Ivory Coast",FLO ID 36220,certified
SUSCOM-CI ,4.754567,-6.6479141,certified Fair Trade trader,commercialization,"Zone Industrielle Sud, Ivory Coast",FLO ID 36391,certified
Touton Negoce Côte d'Ivoire ,5.2651872,-4.0136824,certified Fair Trade trader,commercialization,"Rue des Pétroliers, Abidjan, Ivory Coast",FLO ID 36524,certified
COOPAMYT  (Coopérative des Producteurs Agricole Minan Yibel de Tiemesson-Teady),6.750148,-7.3656465,certified Fair Trade producer,production,"BP 417 Duekoue, Duekoue, Ivory Coast",FLO ID 37129,certified
COOP-CA-CPAY (Société Coopérative avec conseil d'administration des producteurs Agricole de Yabayo),5.7847905,-6.608577,certified Fair Trade producer,production,"BP 230 Soubré, Soubré, Ivory Coast",FLO ID 37169,certified
SCOOPS-ECAPG (Société Coopérative des Eco-Agriculteurs et Producteurs de Galebre ,6.1444299,-6.0285362,certified Fair Trade producer,production,"BP 364 Gagnoa, Gagnoa, Ivory Coast",FLO ID 37175,certified
COFUMA SCOOPS  (Coopérative Agricole des Freres unis de la Marahoue),5.9823622,-3.9654836,certified Fair Trade producer,production,"BP 786 Bouafle, Bonon, Ivory Coast",FLO ID 37183,certified
Ivory Cocoa Products,4.7588067,-6.6913613,certified Fair Trade trader,commercialization,"01 BP 629 San Pedro 01, San Pedro, Ivory Coast",FLO ID 37238,certified
MATRANCI SA ,4.7588067,-6.6913613,certified Fair Trade trader,commercialization,"BP 923 San Pedro, San Pedro, Ivory Coast",FLO ID 37340,certified
ECPAD,5.2682695,-4.0117812,certified Fair Trade trader,commercialization,"15 BP 49 Abidjan 15, Vridi - rue de la Metallurgie, Abidjan, Ivory Coast",FLO ID 37366,certified
C.A.B.A.G SCOOPS (Société Coopérative Simplifiée Agricole Barakadi de Gonate),6.89996,-6.5156039,certified Fair Trade producer,production,"BP 2028 Daloa, Daloa, Ivory Coast",FLO ID 37405,certified
Société Awahus Services Sarl ,4.7588067,-6.6913613,certified Fair Trade trader,commercialization,"01 BP 983 San Pedro 01, San Pedro, Ivory Coast",FLO ID 37518,certified
Omni Value,5.3175172,-4.016988,certified Fair Trade trader,commercialization,"Abidjan Plateau rue du commerce immeuble nabil, 2eme étage porte 202G, Abidjan, Ivory Coast",FLO ID 38227,certified
AGRICOM  (Agricultural Commodities),5.3219523,-4.0209205,certified Fair Trade trader,commercialization,"Plateau, Av. Franchet d'Esperey, Immeuble Ollo, Abidjan, Ivory Coast",FLO ID 38319,certified
IVCAO  (Ivoire Cacao),5.348776,-4.120097,certified Fair Trade trader,commercialization,"16 BP 488 Abidjan, Abidjan, Ivory Coast",FLO ID 38768,certified
IVCOM  (Ivoire Commodities),4.7588067,-6.6913613,certified Fair Trade trader,commercialization,"Quartier Lac en Face de l' hopital general, San Pedro, Ivory Coast",FLO ID 39509,certified
SOCAGC SCOOPS  (Société Coopérative Des Agriculteurs De Gagny Carrefour),4.7588067,-6.6913613,certified Fair Trade trader,commercialization,"01 BP 2260 San Pedro 01, San Pedro, Ivory Coast",FLO ID 39258,certified
SACC-SAS  (Société Agricole de Cafe et de Cacao- SAS),4.7588067,-6.6913613,certified Fair Trade trader,commercialization,"San Pedro, Abidjan, Ivory Coast",FLO ID 40560,certified
SCOOPAPB-COOP  (Société Coopérative Agricole des producteurs de Bangolo),7.0158821,-7.5035765,certified Fair Trade producer,production,"Bangolo, Ivory Coast",FLO ID 40935,certified
Quang Thien Imex ,5.3602217,-3.9696312,certified Fair Trade trader,commercialization,"Marcory Zone 4, Bvd de Marseilles, Immeuble Panorama, Abidjan, Ivory Coast",FLO ID 41021,certified
COOPAGA (Coopérative Agricole de Gabiadji ),5.0160698,-6.5566503,suspended Fair Trade producer,production,"01 BP 134 San Pedro 01, Gabiadji, Ivory Coast",FLO ID 3568,suspended